{
"type": "FeatureCollection",
"features": [
{ "type": "Feature", "properties": { "gid": 1, "name": "A", "location": "Colaba", "heat_value": 0.01, "scaled_heat_value": 5 }, "geometry": { "type": "Point", "coordinates": [ 72.82499932841273, 18.92314404626714 ] } },
{ "type": "Feature", "properties": { "gid": 2, "name": "B", "location": "Sanhurst Road", "heat_value": 0.02, "scaled_heat_value": 20 }, "geometry": { "type": "Point", "coordinates": [ 72.84014108780282, 18.956361729484538 ] } },
{ "type": "Feature", "properties": { "gid": 3, "name": "C", "location": "Marine Lines", "heat_value": 0.01, "scaled_heat_value": 11 }, "geometry": { "type": "Point", "coordinates": [ 72.827369138555284, 18.951107802643861 ] } },
{ "type": "Feature", "properties": { "gid": 4, "name": "D", "location": "Grant Road", "heat_value": 0.01, "scaled_heat_value": 11 }, "geometry": { "type": "Point", "coordinates": [ 72.810046636116567, 18.962338852986374 ] } },
{ "type": "Feature", "properties": { "gid": 5, "name": "E", "location": "Byculla", "heat_value": 0.01, "scaled_heat_value": 5 }, "geometry": { "type": "Point", "coordinates": [ 72.83649747804094, 18.973980182368816 ] } },
{ "type": "Feature", "properties": { "gid": 6, "name": "F\/S", "location": "Parel", "heat_value": 0.01, "scaled_heat_value": 6 }, "geometry": { "type": "Point", "coordinates": [ 72.849314040175813, 18.998380469109811 ] } },
{ "type": "Feature", "properties": { "gid": 7, "name": "G\/S", "location": "Elphinstone", "heat_value": 0.03, "scaled_heat_value": 29 }, "geometry": { "type": "Point", "coordinates": [ 72.821754239037503, 18.998276107278993 ] } },
{ "type": "Feature", "properties": { "gid": 8, "name": "F\/N", "location": "Matunga", "heat_value": 0.01, "scaled_heat_value": 6 }, "geometry": { "type": "Point", "coordinates": [ 72.866180443255843, 19.027688942671769 ] } },
{ "type": "Feature", "properties": { "gid": 9, "name": "G\/N", "location": "Dadar\/Plaza", "heat_value": 0.01, "scaled_heat_value": 6 }, "geometry": { "type": "Point", "coordinates": [ 72.845167742121859, 19.034039861893387 ] } },
{ "type": "Feature", "properties": { "gid": 10, "name": "N", "location": "Ghatkopar", "heat_value": 0.01, "scaled_heat_value": 10 }, "geometry": { "type": "Point", "coordinates": [ 72.925312235155118, 19.087086785452403 ] } },
{ "type": "Feature", "properties": { "gid": 11, "name": "R\/C", "location": "Borivali West", "heat_value": 0.0, "scaled_heat_value": 1 }, "geometry": { "type": "Point", "coordinates": [ 72.842988359114472, 19.231246602334892 ] } },
{ "type": "Feature", "properties": { "gid": 12, "name": "S", "location": "Bhandup", "heat_value": 0.01, "scaled_heat_value": 12 }, "geometry": { "type": "Point", "coordinates": [ 72.929435990870246, 19.132883076753057 ] } },
{ "type": "Feature", "properties": { "gid": 13, "name": "T", "location": "Mulund", "heat_value": 0.01, "scaled_heat_value": 5 }, "geometry": { "type": "Point", "coordinates": [ 72.93000461868418, 19.172457264897716 ] } },
{ "type": "Feature", "properties": { "gid": 14, "name": "K\/W", "location": "Andheri (West)", "heat_value": 0.01, "scaled_heat_value": 13 }, "geometry": { "type": "Point", "coordinates": [ 72.82740153700793, 19.12624421354306 ] } },
{ "type": "Feature", "properties": { "gid": 15, "name": "R\/N", "location": "Dahiser", "heat_value": 0.01, "scaled_heat_value": 7 }, "geometry": { "type": "Point", "coordinates": [ 72.859812145299884, 19.252333824373565 ] } },
{ "type": "Feature", "properties": { "gid": 16, "name": "M\/E", "location": "Chembur East", "heat_value": 0.0, "scaled_heat_value": 1 }, "geometry": { "type": "Point", "coordinates": [ 72.924712731112052, 19.038580626475969 ] } },
{ "type": "Feature", "properties": { "gid": 17, "name": "M\/W", "location": "Chembur West", "heat_value": 0.01, "scaled_heat_value": 5 }, "geometry": { "type": "Point", "coordinates": [ 72.893601964104221, 19.035398895754479 ] } },
{ "type": "Feature", "properties": { "gid": 18, "name": "H\/E", "location": "Khar\/Santacruz", "heat_value": 0.01, "scaled_heat_value": 11 }, "geometry": { "type": "Point", "coordinates": [ 72.855661647372358, 19.07040966220768 ] } },
{ "type": "Feature", "properties": { "gid": 19, "name": "K\/E", "location": "Andheri (East)", "heat_value": 0.01, "scaled_heat_value": 9 }, "geometry": { "type": "Point", "coordinates": [ 72.86549456421136, 19.113823079546972 ] } },
{ "type": "Feature", "properties": { "gid": 20, "name": "P\/S", "location": "Goregaon", "heat_value": 0.01, "scaled_heat_value": 6 }, "geometry": { "type": "Point", "coordinates": [ 72.85737433721664, 19.158451317767106 ] } },
{ "type": "Feature", "properties": { "gid": 21, "name": "P\/N", "location": "Malad", "heat_value": 0.02, "scaled_heat_value": 15 }, "geometry": { "type": "Point", "coordinates": [ 72.826816280932334, 19.184367197153723 ] } },
{ "type": "Feature", "properties": { "gid": 22, "name": "R\/S", "location": "Kandivalli", "heat_value": 0.01, "scaled_heat_value": 7 }, "geometry": { "type": "Point", "coordinates": [ 72.859997723463906, 19.204477547234916 ] } },
{ "type": "Feature", "properties": { "gid": 23, "name": "H\/W", "location": "Bandra", "heat_value": 0.02, "scaled_heat_value": 16 }, "geometry": { "type": "Point", "coordinates": [ 72.831399790836926, 19.064958189215577 ] } },
{ "type": "Feature", "properties": { "gid": 24, "name": "L", "location": "Kurla", "heat_value": 0.01, "scaled_heat_value": 12 }, "geometry": { "type": "Point", "coordinates": [ 72.886669667392297, 19.087555543915656 ] } }
]
}
